Date,City,Latitude,Longitude,Humidity,Cloudiness,Wind Speed,Max Temp
1653636131,Akureyri,65.6835,-18.0878,93,100,2.06,278.11
1653635462,Cidreira,-30.1811,-50.2056,93,40,4.76,290.66
1653635462,Atuona,-9.8,-139.0333,78,15,7.54,298.98
1653635678,Vostok,46.4856,135.8833,60,100,3.68,289.22
1653636075,Nuuk,64.1835,-51.7216,86,100,4.63,272.49
1653635890,Hobart,-42.8794,147.3294,83,40,5.14,285.07
1653635841,Albany,42.6001,-73.9662,80,100,2.4,291.89
1653636132,Castro,-24.7911,-50.0119,85,100,1.57,284.79
1653636133,Saint Paul Harbor,57.79,-152.4072,58,0,2.06,284.88
1653636133,Tateyama,34.9833,139.8667,87,100,7.33,294.73
1653636133,Severo-Kuril'sk,50.6789,156.125,88,67,1.13,278.79
1653636134,Hilo,19.7297,-155.09,82,100,0.89,298.31
1653636134,Tuktoyaktuk,69.4541,-133.0374,94,100,3.55,273.45
1653635897,Ancud,-41.8697,-73.8203,81,22,1.59,278.65
1653636135,Busselton,-33.65,115.3333,44,95,1.42,294.1
1653636135,Big Bend,-26.8167,31.9333,94,98,0.51,292.2
1653636136,Bluff,-46.6,168.3333,80,0,3.45,278.6
1653636136,Mar del Plata,-38.0023,-57.5575,75,100,0.89,282.09
1653636136,Yulara,-25.2406,130.9889,32,42,1.17,297.18
1653636137,Rikitea,-23.1203,-134.9692,78,38,6.06,297.85
1653636137,Kysyl-Syr,63.8986,122.7617,38,99,4.08,284.52
1653636138,Katsuura,35.1333,140.3,84,100,7.03,295.23
1653636138,Turukhansk,65.8167,87.9833,27,7,4.14,287.86
1653636138,Kamyshin,50.0983,45.416,53,11,8.05,291.77
1653636139,Kasempa,-13.4584,25.8338,38,0,2.63,292.88
1653635682,Perth,-31.9333,115.8333,38,0,4.12,298.9
1653636139,Okhotsk,59.3833,143.3,85,84,3.25,277.98
1653635958,Ushuaia,-54.8,-68.3,87,75,14.4,274.96
1653636140,Longyearbyen,78.2186,15.6401,71,75,3.09,281.06
1653636140,Muros,42.7762,-9.0603,64,68,3.37,292.68
1653636140,Havelock,34.8791,-76.9013,94,0,2.57,298.14
1653636141,Tasiilaq,65.6145,-37.6368,72,10,2.03,275.24
1653636141,Aklavik,68.2191,-135.0107,95,100,5.0,276.83
1653636142,Sioux Lookout,50.1001,-91.917,100,20,1.03,278.19
1653636142,Luzhou,28.8724,105.4405,96,100,1.95,293.65
1653636142,Takoradze,4.8845,-1.7554,88,100,0.85,297.96
1653636143,Kibaya,-5.3,36.5667,71,93,2.8,291.7
1653636143,Souillac,-20.5167,57.5167,69,20,3.6,299.36
1653636143,Bredasdorp,-34.5322,20.0403,82,51,1.71,286.14
1653636144,Yangi Marg`ilon,40.4272,71.7189,28,17,5.14,301.55
1653636144,Pangnirtung,66.1451,-65.7125,91,100,3.24,261.3
1653636145,Saint Anthony,45.0205,-93.218,92,0,2.06,282.82
1653636145,Mossamedes,-15.1961,12.1522,73,0,1.84,293.62
1653636146,Chokurdakh,70.6333,147.9167,64,48,4.44,273.62
1653636146,São Filipe,14.8961,-24.4956,81,7,3.95,294.88
1653636146,Puerto Ayora,-0.7393,-90.3518,92,5,3.23,292.9
1653636147,Bagumbong,6.9015,124.517,77,100,1.04,301.63
1653636147,Pisco,-13.7,-76.2167,82,100,1.54,289.18
1653636148,Port Alfred,-33.5906,26.891,94,5,2.05,287.69
1653636148,Verāval,20.9,70.3667,71,9,7.94,303.32
1653636148,Alta Floresta,-9.8756,-56.0861,76,92,1.55,292.09
1653636149,Kapaa,22.0752,-159.319,68,0,6.69,297.14
1653636149,Safi,32.2994,-9.2372,57,1,1.18,294.55
1653636150,Narsaq,60.9167,-46.05,99,100,0.87,277.27
1653635705,Cape Town,-33.9258,18.4232,86,0,0.51,289.47
1653636150,Viedma,-40.8135,-62.9967,77,1,3.72,276.81
1653636150,Isangel,-19.55,169.2667,82,53,2.54,297.86
1653636151,Verkhnevilyuysk,63.4453,120.3167,36,100,3.49,283.97
1653636151,Vaini,-21.2,-175.2,94,75,1.54,298.24
1653636152,Popondetta,-8.7537,148.2534,83,16,1.25,299.66
1653636152,Tucumã,-0.1833,-50.05,94,22,1.32,296.33
1653636152,Khandyga,62.6667,135.6,57,100,1.75,283.96
1653636004,Kiryat Gat,31.61,34.7642,35,7,4.1,306.15
1653636153,Mayo,38.8876,-76.5119,92,100,3.09,293.55
1653636153,Muyezerskiy,63.9333,31.65,84,99,3.54,280.99
1653636153,Shimoda,34.6667,138.95,77,100,4.65,297.35
1653636154,Hithadhoo,-0.6,73.0833,71,4,5.07,302.04
1653636154,Los Algarrobos,8.5,-82.4333,96,100,0.85,296.06
1653636154,Havre-St-Pierre,50.2334,-63.5986,93,100,3.6,280.35
1653636155,Ostrovnoy,68.0531,39.5131,97,100,10.92,276.6
1653636155,Mataura,-46.1927,168.8643,92,0,1.15,278.42
1653636155,Cross Lanes,38.4204,-81.7907,97,100,3.6,291.98
1653636156,Arraial do Cabo,-22.9661,-42.0278,77,6,8.25,294.47
1653635888,Hamilton,39.1834,-84.5333,94,0,2.06,290.41
1653636156,Constitución,-35.3333,-72.4167,66,100,2.08,281.23
1653636157,Chui,-33.6971,-53.4616,98,100,1.01,287.76
1653636157,Cockburn Town,21.4612,-71.1419,76,100,9.08,299.42
1653636157,Puerto Madryn,-42.7692,-65.0385,68,7,4.64,276.81
1653636158,Touros,-5.1989,-35.4608,91,11,5.43,296.42
1653636158,Nanortalik,60.1432,-45.2371,94,100,2.0,275.08
1653636158,Sinop Province,41.7711,34.8709,59,0,2.97,288.39
1653636159,Ballina,-28.8667,153.5667,83,6,2.5,290.81
1653636159,Huarmey,-10.0681,-78.1522,90,100,3.76,290.22
1653636159,Thompson,55.7435,-97.8558,100,100,3.09,273.24
1653636160,Sola,-13.8833,167.55,77,58,5.89,300.51
1653636058,Hong Kong,22.2855,114.1577,89,100,4.47,301.66
1653636160,Amantea,39.1332,16.0746,47,100,3.37,303.18
1653636161,Dikson,73.5069,80.5464,73,0,0.18,272.35
1653636161,San Juan del Sur,11.2529,-85.8705,84,100,4.48,298.92
1653636162,Yellowknife,62.456,-114.3525,61,20,2.57,281.44
1653636162,Hasaki,35.7333,140.8333,89,100,9.2,296.09
1653636163,Provideniya,64.3833,-173.3,83,71,2.79,276.88
1653636163,Kungurtug,50.5994,97.5228,21,60,4.32,296.58
1653636163,Saskylakh,71.9167,114.0833,87,100,4.97,272.75
1653636164,Leh,34.1667,77.5833,31,93,1.12,287.03
1653636164,Kotel'nich,58.3089,48.348,94,100,4.29,282.87
1653636164,Sárvár,47.2539,16.9352,72,100,0.97,295.07
1653636165,Leşu,47.3167,24.75,75,40,3.02,293.56
1653636165,Ribeira Grande,38.5167,-28.7,88,40,6.69,291.37
1653636165,Petropavlovsk-Kamchatskiy,53.0452,158.6483,76,40,6.0,281.48
1653636166,Kumul,42.8,93.45,15,80,7.51,307.78
1653636166,Kaitangata,-46.2817,169.8464,82,0,0.95,278.93
1653636167,Parfino,57.9731,31.6481,92,100,3.18,283.17
1653636140,Punta Arenas,-53.15,-70.9167,75,20,10.8,277.21
1653636167,Adrar,20.5022,-10.0711,39,10,2.7,301.33
1653636167,Tessalit,20.1986,1.0114,18,93,0.95,307.18
1653636168,Carnarvon,-24.8667,113.6333,56,100,2.15,296.02
1653636168,Barrow,71.2906,-156.7887,86,100,6.69,272.16
1653636168,Vuktyl,63.8567,57.3094,56,100,2.18,284.36
1653636169,Waddān,29.1614,16.139,8,0,6.48,305.48
1653636002,Fairbanks,64.8378,-147.7164,48,100,5.14,290.15
1653636169,Yandyki,45.7691,47.1258,35,99,3.12,295.77
1653636170,Mana,5.6592,-53.7767,85,99,3.39,297.92
1653636170,Esperance,-33.8667,121.9,56,3,3.47,291.27
1653636170,Hermanus,-34.4187,19.2345,81,57,3.91,288.6
1653636171,Al Bardīyah,31.7561,25.0865,39,0,2.23,299.91
1653636171,Kapoeta,4.7717,33.5903,50,35,3.15,302.22
1653636171,Kot Kapūra,30.5833,74.9,16,0,1.89,314.92
1653636172,Atlantic Beach,30.3344,-81.3987,85,0,5.14,299.21
1653636172,Uthal,25.8072,66.6219,47,0,4.09,309.38
1653636173,São Félix do Xingu,-6.6447,-51.995,82,53,0.76,295.68
1653635981,Geraldton,-28.7667,114.6,34,0,4.12,299.38
1653636154,Redmond,47.674,-122.1215,87,99,0.45,289.33
1653636173,Bambous Virieux,-20.3428,57.7575,69,20,3.6,300.49
1653636174,Adré,13.4667,22.2,9,5,5.58,303.23
1653636174,Bambanglipuro,-7.95,110.2833,72,31,2.48,302.12
1653636174,Kavieng,-2.5744,150.7967,66,100,4.23,301.19
1653636175,Tottori-shi,35.5,134.2333,56,20,5.66,296.19
1653636175,Muroto-misakicho,33.2833,134.15,64,94,1.25,296.7
1653636176,Martapura,-3.4167,114.85,62,40,2.57,305.2
1653636176,Oranjemund,-28.55,16.4333,74,0,0.54,288.44
1653636176,Necochea,-38.5473,-58.7368,68,100,2.84,280.63
1653636177,Wucheng,29.6008,118.175,49,97,1.24,303.09
1653636177,Prieska,-29.6641,22.7474,31,0,1.43,288.55
1653636177,Forio,40.7342,13.8646,77,100,0.89,301.0
1653636178,Pankrushikha,53.8319,80.3406,31,0,3.99,299.08
1653636178,Hirara,24.8,125.2833,94,75,5.66,298.3
1653636178,Papara,-3.9839,-38.7273,95,23,2.19,296.37
1653636179,Sol'-Iletsk,51.1631,54.9918,55,34,6.99,289.9
1653636180,Sechura,-5.5569,-80.8222,82,35,5.98,291.45
1653636180,Talnakh,69.4865,88.3972,89,100,3.76,277.38
1653636180,Carndonagh,55.25,-7.2667,78,100,7.78,282.74
1653636181,Port Elizabeth,-33.918,25.5701,85,0,1.34,289.99
1653636181,Bom Jesus da Lapa,-13.255,-43.4181,75,39,2.8,291.23
1653636182,Lavrentiya,65.5833,-171.0,97,48,1.33,273.7
1653636182,Dickinson,29.4608,-95.0513,87,0,2.57,298.17
1653636182,Arrecife,28.963,-13.5477,77,20,3.09,292.14
1653636183,Nome,64.5011,-165.4064,87,100,6.69,276.19
1653636183,Grindavik,63.8424,-22.4338,81,20,4.12,281.12
1653636038,Eureka,40.8021,-124.1637,85,100,1.5,287.45
1653636184,Leningradskiy,69.3833,178.4167,91,100,2.11,274.92
1653636184,Meulaboh,4.1363,96.1285,67,100,5.15,303.78
1653636185,Bonga,7.2833,36.2333,89,23,1.02,293.29
1653636185,Antsohihy,-14.8796,47.9875,53,1,1.36,303.12
1653636185,Port Hawkesbury,45.6169,-61.3485,75,100,3.6,285.32
1653636186,Saint-Philippe,-21.3585,55.7679,65,0,0.71,298.92
1653636186,Mitzic,0.7821,11.549,96,100,0.37,293.44
1653636186,Nizwá,22.9333,57.5333,9,0,1.55,313.48
1653636187,Nikolskoye,59.7035,30.7861,81,94,3.18,285.3
1653636187,Srednekolymsk,67.45,153.6833,36,99,5.84,281.42
1653636187,Tiksi,71.6872,128.8694,85,71,1.69,273.44
1653636188,Khatanga,71.9667,102.5,77,100,2.75,274.93
1653636188,Lebu,-37.6167,-73.65,72,100,5.3,279.51
1653636189,Olginskaya,47.1879,39.9492,66,82,5.82,293.65
1653636189,Lompoc,34.6391,-120.4579,77,100,2.24,289.09
1653636189,Butaritari,3.0707,172.7902,70,98,1.84,300.63
1653636190,Kindu,-2.95,25.95,74,98,0.81,298.21
1653636190,San Miguel de Tucumán,-26.8241,-65.2226,93,100,1.54,282.15
1653636068,Taoudenni,22.6783,-3.9836,26,0,3.77,305.62
1653636191,Bogorodskoye,56.55,37.8833,95,100,4.42,282.03
1653636191,Lichinga,-13.3128,35.2406,63,20,4.12,292.2
1653636191,Te Anau,-45.4167,167.7167,88,0,1.09,279.65
1653636192,Samfya,-11.3649,29.5565,51,0,3.04,293.29
1653636192,Salihorsk,52.7876,27.5415,59,23,7.92,287.3
1653636193,Rafaela,-31.2503,-61.4867,68,100,0.45,285.93
1653636193,Dauriya,49.9333,116.8667,20,23,11.22,293.66
1653636194,Bonthe,7.5264,-12.505,90,19,2.13,297.57
1653635973,Udachny,66.4167,112.4,45,100,7.4,280.07
1653636194,Torbay,47.6666,-52.7314,83,75,2.57,275.53
1653636194,Padang,-0.9492,100.3543,77,68,3.55,305.18
1653635956,Broken Hill,-31.95,141.4333,58,8,2.93,289.09
1653636195,Itarema,-2.9248,-39.9167,92,13,3.81,295.95
1653636195,Naantali,60.4674,22.0243,62,75,1.03,288.19
1653636196,Koumac,-20.5667,164.2833,77,100,2.11,297.94
1653636196,Makakilo City,21.3469,-158.0858,61,0,3.6,296.49
1653636196,São João da Barra,-21.6403,-41.0511,84,9,2.45,292.0
1653636197,San Patricio,28.017,-97.5169,90,0,4.24,300.07
1653636197,Saint George,37.1041,-113.5841,13,0,8.23,302.48
1653636197,Qaanaaq,77.484,-69.3632,64,84,5.81,272.33
1653636198,Kawambwa,-9.7915,29.0791,52,0,3.11,293.42
1653636198,Khasan,42.4308,130.6434,95,100,3.39,284.16
1653636198,Jamestown,42.097,-79.2353,92,100,3.09,292.05
1653636199,Belyy Yar,53.6039,91.3903,21,0,7.0,296.96
1653636199,Port Macquarie,-31.4333,152.9167,80,0,1.26,290.87
1653636200,Sompeta,18.9333,84.6,42,3,7.87,309.89
1653636200,Tiznit Province,29.5833,-9.5,33,6,0.33,298.9
1653636200,Kuytun,54.3419,101.5036,39,88,3.45,287.53
1653636201,New Norfolk,-42.7826,147.0587,78,99,0.97,284.87
1653636201,Wajir,1.7471,40.0573,61,75,4.12,302.13
1653636202,Kota Bharu,6.1333,102.2386,66,20,2.57,304.12
1653636202,Herre,59.1,9.5667,58,100,1.66,286.43
1653636202,Mkushi,-13.6202,29.3939,40,0,3.86,294.33
1653636135,Rognan,67.0953,15.3878,78,74,0.56,285.24
1653636203,Mirny,62.5353,113.9611,28,16,4.29,282.54
1653636203,Mahon,39.8885,4.2658,72,40,9.26,292.46
1653636204,Srandakan,-7.9386,110.2506,71,22,2.47,302.33
1653636204,Greensburg,40.3015,-79.5389,88,75,2.06,293.21
1653636205,Rize,40.9044,40.8949,48,12,2.49,285.4
1653636205,Chulym,55.0997,80.9572,32,0,5.69,296.67
1653636155,Navalmoral de la Mata,39.8916,-5.5406,50,24,2.72,297.02
1653636205,Cherskiy,68.75,161.3,53,99,8.28,276.54
1653636206,Aden,12.7794,45.0367,73,6,3.17,303.39
1653636194,George Town,5.4112,100.3354,67,40,4.12,307.11
1653636206,Sawtell,-30.3833,153.1,82,40,2.57,291.16
1653636207,Salalah,17.0151,54.0924,62,20,6.17,305.2
1653636207,Cabo San Lucas,22.8909,-109.9124,73,0,5.62,296.82
1653635706,Jumla,29.2747,82.1838,64,100,2.68,291.3
1653636208,Pirgos,35.1167,25.7178,43,1,1.71,299.05
1653636208,Sitka,57.0531,-135.33,66,20,2.06,284.09
1653636208,Norman Wells,65.282,-126.8329,81,20,2.06,277.17
1653636209,Port-Gentil,-0.7193,8.7815,94,40,2.06,297.13
1653636209,Gimli,50.6336,-96.9907,93,2,1.54,280.16
1653636209,Zatoka,46.0725,30.4654,66,98,3.64,291.93
1653636210,Kruisfontein,-34.0033,24.7314,81,31,1.91,285.86
1653636210,Airai,-8.9266,125.4092,67,98,1.6,293.49
1653636210,Ojinaga,29.5667,-104.4167,39,0,4.63,301.68
1653636211,Krasnovishersk,60.4078,57.082,52,83,2.33,286.61
1653636211,Bengkulu,-3.8004,102.2655,70,100,4.28,302.39
1653636211,Olafsvik,64.8945,-23.7142,80,23,6.06,279.13
1653636212,Codrington,-38.2667,141.9667,73,100,2.75,286.68
1653636049,Baghdad,33.3406,44.4009,10,0,5.66,307.1
1653636212,Rjukan,59.8789,8.5941,55,100,4.47,282.29
1653636213,Solnechnyy,50.7214,136.6319,80,100,1.75,288.89
1653636213,Oddur,4.1213,43.8894,45,61,9.5,302.59
1653636213,Karratha,-20.7377,116.8463,43,96,4.83,301.81
1653636214,Beringovskiy,63.05,179.3167,69,100,6.28,279.59
1653636214,East London,-33.0153,27.9116,77,0,2.06,289.67
1653636214,Dobryatino,55.5055,41.3195,99,100,2.85,282.71
1653636215,Clyde River,70.4692,-68.5914,79,100,10.8,265.28
1653636215,Avarua,-21.2078,-159.775,94,34,1.54,296.18
1653636216,Shiyan,32.6475,110.7781,70,100,4.98,293.79
1653636216,Rudnogorsk,57.2639,103.7519,26,100,3.62,287.14
1653636216,Auki,-8.7676,160.7034,89,100,1.75,298.03
1653636217,Nokaneng,-19.6667,22.2667,25,0,2.31,292.0
1653636217,Kerūr,16.0167,75.5667,30,6,6.28,306.15
1653636217,Mashhad,36.297,59.6062,64,75,2.06,293.23
1653636043,Chattanooga,35.0456,-85.3097,82,75,0.45,291.24
1653636218,Xining,36.6167,101.7667,28,100,2.96,292.8
1653636218,Ponta do Sol,32.6667,-17.1,71,26,1.54,291.5
1653636219,Kaeo,-35.1,173.7833,97,95,5.37,286.66
1653636219,Palma di Montechiaro,37.1926,13.765,31,31,8.79,298.95
1653636219,Tarakan,3.3,117.6333,83,75,1.54,299.87
1653636220,Marawi,7.9986,124.2928,77,100,1.38,298.55
1653636220,Vila Franca do Campo,37.7167,-25.4333,87,54,1.35,291.59
1653636220,Zhigansk,66.7697,123.3711,58,9,9.97,277.95
1653636221,Bognor Regis,50.7821,-0.6798,81,94,5.4,289.81
1653636221,Betafo,-19.8333,46.85,48,0,1.44,294.36
1653636221,Foumban,5.7291,10.9001,96,100,1.25,290.2
1653636222,High Rock,26.6208,-78.2833,74,6,6.35,298.16
1653636222,Río Gallegos,-51.6226,-69.2181,69,0,9.77,275.18
1653636223,Bealanana,-14.55,48.7333,46,6,1.96,296.66
1653636223,Podgornoye,51.735,39.1496,63,0,8.0,288.27
1653636223,Nhlangano,-27.1167,31.2,86,86,1.14,288.22
1653636224,Colan,7.5873,-80.2296,88,100,1.2,297.6
1653636224,Coahuayana Viejo,18.7333,-103.6833,90,15,0.84,296.27
1653636224,Kuching,1.55,110.3333,66,40,3.58,305.27
1653636225,Ugra,54.7777,34.3267,92,100,5.27,281.45
1653636225,Tura,25.5198,90.2201,54,0,2.24,303.79
1653636075,Kulhudhuffushi,6.6221,73.07,76,73,5.32,301.4
1653636226,Lorengau,-2.0226,147.2712,72,100,3.25,301.56
1653636226,Kjøllefjord,70.9457,27.3465,87,75,6.69,279.18
1653636227,Husavik,66.0449,-17.3389,96,100,4.14,277.61
1653636227,Ust'-Shonosha,61.1531,41.343,65,100,3.6,286.03
1653636227,La Ronge,55.1001,-105.2842,75,20,3.6,279.29
1653636228,Yamethin,20.4333,96.15,49,94,4.07,305.3
1653636228,Hay River,60.8156,-115.7999,81,40,0.51,280.14
1653636229,Cap Malheureux,-19.9842,57.6142,51,0,1.34,300.63
1653636229,Haines Junction,60.7522,-137.5108,61,92,3.6,282.12
1653636229,Shāhpura,27.3833,75.9667,25,0,5.78,312.59
1653636230,Amapá,1.0,-52.0,100,50,0.26,293.63
1653636230,Krasnosel'kup,65.7,82.4667,33,15,4.41,290.45
1653636230,Nālūt,30.3333,10.85,23,48,5.4,300.84
1653636144,Quang Ngai,15.1167,108.8,63,100,3.07,305.5
1653636231,Qingyuan,23.7,113.0333,78,100,2.2,298.14
1653636232,Bulungu,-4.55,18.6,87,26,0.47,296.63
1653636232,Simao,22.7886,100.9748,57,98,2.6,300.19
1653636232,Florianópolis,-27.6146,-48.5012,96,0,1.03,290.6
1653636233,Mozarlândia,-14.7447,-50.5706,50,100,1.67,295.36
1653636198,Bethel,41.3712,-73.414,90,100,1.96,290.73
1653636233,Clarence Town,-32.5833,151.7833,87,5,1.25,291.96
1653636234,Palmer,42.1584,-72.3287,78,100,3.09,290.51
1653636234,Flinders,-34.5833,150.8552,79,2,0.89,292.14
1653636234,Edelira,-26.75,-55.2667,98,72,1.82,288.66
1653636235,Luau,-10.7073,22.2247,36,0,2.54,292.69
1653636235,Brae,60.3964,-1.353,77,28,8.67,282.23
1653636236,Camocim,-2.9022,-40.8411,91,21,3.44,296.34
1653636236,Tual,-5.6667,132.75,71,26,5.84,302.09
1653636236,Gebre Guracha,9.8,38.4,32,11,2.12,294.55
1653636237,Plastun,44.7561,136.2939,97,100,2.22,284.31
1653636237,Bumba,2.1833,22.4667,67,3,1.55,299.75
1653636237,Nsoko,-27.0333,31.95,88,96,1.14,291.74
1653636238,Lumby,50.2498,-118.969,76,100,4.12,289.02
1653636109,Kavaratti,10.5669,72.642,73,100,3.33,301.67
1653636238,Baiyin,36.5583,104.2081,16,100,3.35,298.16
1653636238,Nioki,-2.7167,17.6833,91,98,0.78,295.78
1653636239,Nyagan,62.1406,65.3936,51,100,5.51,295.87
1653636239,Lüderitz,-26.6481,15.1594,62,0,2.61,290.1
1653636240,Margate,51.3813,1.3862,77,100,7.97,288.88
1653636240,Maningrida,-12.0667,134.2667,50,100,3.84,302.94
1653636240,Berdigestyakh,62.0989,126.6992,41,99,3.66,285.6
1653636241,Los Llanos de Aridane,28.6585,-17.9182,81,75,3.6,291.01
1653636241,Sorong,-0.8833,131.25,73,66,2.71,302.09
1653636241,Pevek,69.7008,170.3133,83,95,5.27,272.17
1653636242,Abaeté,-19.16,-45.4458,84,81,0.72,286.94
1653636242,Goedereede,51.8175,3.9806,72,59,2.68,289.26
1653636243,Saint-Ambroise,48.5501,-71.3324,99,100,1.72,283.47
1653636243,Henties Bay,-22.116,14.2845,79,0,1.67,288.94
1653636070,Whitehorse,60.7161,-135.0538,70,20,2.57,278.6
1653636244,Kushmurun,52.4503,64.6311,44,78,6.56,290.03
1653636244,Linxia Chengguanzhen,35.6003,103.2064,36,100,1.91,292.17
1653636244,Pitimbu,-7.4706,-34.8086,84,26,5.75,296.48
1653636245,Bairiki Village,1.3292,172.9752,78,75,2.06,300.15
1653636245,Esim,4.8699,-2.2405,88,97,1.45,297.81
1653636246,Wum,6.3833,10.0667,95,100,1.83,290.74
1653636246,Vila do Maio,15.1333,-23.2167,82,94,5.91,295.59
1653636246,Epiniana,39.1429,21.6134,39,6,1.83,298.99
1653636247,Lac du Bonnet,50.2536,-96.0612,93,53,2.92,285.02
1653636247,Dunkwa,5.9656,-1.78,98,98,0.32,295.95
1653636247,Ilhabela,-23.7781,-45.3581,71,11,1.42,293.11
1653636248,Vardø,70.3705,31.1107,93,75,9.26,277.14
1653636248,Kitgum,3.2783,32.8867,79,100,1.49,296.32
1653636248,Avera,33.194,-82.5271,95,100,4.88,293.88
1653636249,Vao,-22.6667,167.4833,79,100,5.41,296.52
1653636249,Fuxin,42.0156,121.6589,22,9,4.1,302.47
1653636249,Aksarka,66.5606,67.7975,41,100,7.52,294.69
1653636250,Benito Juarez,19.385,-99.165,49,75,4.12,292.5
1653636250,Calvià,39.5657,2.5062,62,6,3.1,294.86
1653636251,Vanimo,-2.6741,141.3028,74,100,2.32,301.24
1653636251,Zarechnyy,53.2036,45.1923,74,67,7.81,287.14
1653636252,Praia,14.9215,-23.5087,73,20,6.17,295.45
1653636252,Fortuna,40.5982,-124.1573,94,75,3.6,284.63
1653636252,Tweed,44.4751,-77.3162,97,100,4.61,291.8
1653636253,Saint-Pierre,-21.3393,55.4781,65,0,3.09,299.21
1653636253,Santa Cruz de Barahona,18.2085,-71.1008,83,100,1.4,297.8
1653636253,Keti Bandar,24.1447,67.4497,70,0,11.88,303.98
1653636254,Fonte Boa,-2.4959,-66.2662,97,95,0.85,296.05
1653636254,Altamont,42.2068,-121.7372,79,0,2.57,281.98
1653635996,Riyadh,24.6877,46.7219,11,0,6.05,307.23
1653635962,Port Augusta,-32.5,137.7667,52,10,3.0,290.79
1653636255,Canandaigua,42.8742,-77.288,86,100,0.89,294.02
1653636255,Upernavik,72.7868,-56.1549,70,100,3.7,267.72
1653636255,Camopi,3.1655,-52.3158,99,98,0.4,294.86
1653636256,Fare,-16.7,-151.0167,71,0,6.59,300.36
1653636256,Cairns,-16.9167,145.7667,69,4,5.66,299.32
1653636256,Mahébourg,-20.4081,57.7,69,20,3.6,300.51
1653636257,Walvis Bay,-22.9575,14.5053,75,0,2.82,289.02
1653636257,Sibolga,1.7427,98.7792,68,100,3.32,303.33
1653636258,Nyurba,63.2842,118.3319,34,100,3.77,284.01
1653636258,Cayenne,4.9333,-52.3333,1,100,0.0,297.09
1653636258,Mocuba,-16.8392,36.9856,73,2,1.29,296.23
1653636259,Paracelis,17.2667,121.4667,58,93,1.18,305.13
1653636259,Broome,42.2506,-75.833,81,100,4.63,293.4
1653636250,Orange,33.7,-117.7675,81,100,2.06,290.92
1653636259,Burgeo,47.6167,-57.6152,85,100,6.52,279.57
1653636260,Monywa,22.1167,95.1333,40,11,2.98,308.72
1653636260,Mumford,5.2618,-0.759,89,100,1.0,297.7
1653636261,Humaitá,-7.5061,-63.0208,82,100,0.21,297.09
1653636261,Plettenberg Bay,-34.0527,23.3716,77,5,1.55,288.68
1653636261,Kismayo,-0.3582,42.5454,73,100,6.66,301.54
1653636262,Tezu,27.9167,96.1667,72,30,1.34,303.05
1653636262,Urengoy,65.9667,78.3667,24,8,4.96,290.45
1653636263,Pala,9.3642,14.9046,59,100,3.64,300.44
1653636263,Opuwo,-18.0607,13.84,31,0,2.38,291.63
1653636263,Comodoro Rivadavia,-45.8667,-67.5,49,0,7.72,279.07
1653636264,Soto la Marina,23.7667,-98.2167,93,63,2.19,299.14
1653636264,Along,28.1667,94.7667,58,41,1.97,304.54
1653636265,Fort Nelson,58.8053,-122.7002,71,40,1.54,280.92
1653636265,Zeya,53.75,127.2667,28,74,6.32,299.34
1653636265,Traverse City,44.7631,-85.6206,92,100,1.54,285.22
1653636266,Tanout,14.9709,8.8879,9,0,1.43,304.95
1653636266,Carutapera,-1.195,-46.02,93,15,1.98,296.22
1653636266,Inhambane,-23.865,35.3833,71,11,4.02,297.18
1653636267,San Quintín,30.4833,-115.95,90,9,4.13,288.09
1653636020,Bobrov,51.0961,40.0333,72,50,9.5,288.93
1653636267,Barra do Corda,-5.5,-45.25,95,54,0.95,293.77
1653636075,Thinadhoo,0.5333,72.9333,70,1,4.92,301.98
1653636268,Ust-Kuyga,70.0167,135.6,68,100,2.84,274.1
1653636268,Kasongo-Lunda,-6.4667,16.8167,76,43,0.32,296.64
1653636269,Port Lincoln,-34.7333,135.8667,57,94,4.89,288.04
1653636269,Bukama,-9.2,25.85,40,13,1.53,297.33
1653636269,Qaqortoq,60.7167,-46.0333,98,100,0.93,274.21
1653636270,Berlevåg,70.8578,29.0864,81,100,7.72,278.15
1653636270,Kedrovyy,56.1667,91.8167,34,97,3.18,290.38
1653636270,Helong,42.5397,128.9972,65,57,1.9,287.72
1653636271,Amazar,53.858,120.875,47,92,5.2,292.21
1653636271,Fernie,49.5,-115.0687,95,100,1.12,285.2
1653636272,Wainwright,52.839,-110.8572,67,90,3.83,283.74
1653636272,Ixtapa,20.7,-105.2,88,40,0.0,296.72
1653636272,Ostrów Wielkopolski,51.655,17.8069,95,100,5.79,286.16
1653636273,Koshurnikovo,54.1667,93.3,30,82,1.28,294.44
1653636273,Juazeiro,-9.4117,-40.4986,88,75,3.6,295.25
1653636273,Nouadhibou,20.931,-17.0347,94,5,4.12,291.14
1653636274,Hauge i Dalane,58.3436,6.2812,78,59,8.48,280.76
1653636274,Port Blair,11.6667,92.75,79,75,5.66,303.17
1653636275,Abu Kamal,34.4506,40.9171,12,0,2.24,303.67
1653636275,Union,40.6334,-74.2663,92,100,2.06,292.58
1653636275,Paamiut,61.994,-49.6678,95,100,4.41,271.43
1653636276,Bowen,-20.0167,148.2333,68,25,3.78,296.19
1653636276,Cutervo,-6.379,-78.8157,95,60,1.65,281.86
1653636276,Xixiang,35.1628,112.865,14,100,5.2,307.06
1653636277,Lamar,33.6668,-95.5836,94,0,1.54,287.1
1653636277,Faanui,-16.4833,-151.75,74,0,8.02,300.0
1653636277,Khanbari,27.3747,87.2039,46,69,2.28,301.32
1653636278,Omboué,-1.5746,9.2618,89,100,1.94,296.39
1653636278,Yangambi,0.8102,24.4336,71,99,1.26,298.8
1653636279,Presidencia Roque Sáenz Peña,-26.7852,-60.4388,96,100,1.51,286.48
1653636279,Forsytheganj,52.6333,29.7333,57,1,7.99,287.25
1653636279,Pacific Grove,36.6177,-121.9166,89,75,3.13,287.6
1653636280,Yuzhno-Kurilsk,44.0306,145.8556,90,100,4.74,283.86
1653636280,Villazón,-22.0866,-65.5942,14,80,3.9,275.78
1653636281,Balabac,7.9868,117.0645,79,100,5.16,301.35
1653636281,Sovetskiy,61.3614,63.5842,92,100,6.96,279.76
1653636281,Sebastian,35.1668,-94.2669,98,14,2.17,285.46
1653636282,Kahului,20.8947,-156.47,71,40,5.66,297.51
1653636282,Chauk,20.8833,94.8167,33,3,2.94,309.64
1653636283,Faya,18.3851,42.4509,18,0,3.08,301.21
1653636090,Mackay,-21.15,149.2,72,0,4.1,295.75
1653636283,Marzuq,14.4,46.4667,10,0,2.57,306.05
1653636284,Ambilobe,-13.2,49.05,54,46,0.63,302.88
1653636284,Rawson,-43.3002,-65.1023,64,5,4.37,277.12
1653636284,San Cristobal,7.7669,-72.225,96,100,1.08,292.01
1653636285,Bocaiúva,-17.1078,-43.815,96,85,1.86,286.12
1653636285,Nador,35.174,-2.9287,77,40,1.54,293.29
1653636285,Usinsk,65.9939,57.5281,65,100,3.53,282.84
1653636286,Saldanha,-33.0117,17.9442,73,0,2.26,285.18
1653636286,Iskateley,67.6803,53.1512,66,100,5.81,284.82
1653636286,Methóni,36.8197,21.7049,50,1,1.89,297.77
1653636272,Lima,-12.0432,-77.0282,85,100,3.6,287.54
1653636287,Palafrugell,41.9174,3.1631,39,25,5.36,294.51
1653636287,Sobolevo,54.4299,31.8996,85,100,6.54,282.75
1653636288,Seddon,-37.8068,144.8916,80,20,2.57,288.65
1653636017,Kachīry,53.0675,76.1036,32,0,6.99,300.57
1653636219,Aktau,43.65,51.2,54,100,4.49,295.47
1653636288,Tétouan,35.5711,-5.3724,73,75,3.6,292.58
1653636289,Port Hedland,-20.3167,118.5667,51,95,6.17,302.18
1653636289,Maniitsoq,65.4167,-52.9,78,100,4.24,272.31
1653636290,Payo,-3.7508,103.6372,50,95,1.02,306.72
1653636290,Fengcheng,40.4536,124.0717,33,0,4.11,300.07
1653636290,Sept-Îles,50.2001,-66.3821,94,100,6.69,279.85
1653636291,Prince George,53.9166,-122.753,81,0,4.12,282.84
1653636291,Camabatela,-8.1881,15.375,67,5,1.03,292.82
1653636291,Mount Isa,-20.7333,139.5,24,0,6.17,299.02
1653636292,Ginda,30.6945,78.4932,34,94,1.94,299.58
1653636292,Otradnoye,59.7775,30.8181,84,100,3.04,285.95
1653636293,Yakovlevka,44.425,133.4772,62,100,3.17,290.58
1653636293,Umm Kaddadah,13.6017,26.6876,6,0,6.25,305.49
1653636293,Tapiramutá,-11.8472,-40.7914,92,98,2.48,288.8
1653636294,Morondava,-20.2833,44.2833,57,0,1.24,297.55
1653636294,Ketchikan,55.3422,-131.6461,71,0,2.57,284.41
1653636294,Gawler,-34.6,138.7333,87,38,2.71,288.29
1653636295,Plaster Rock,46.9065,-67.39,96,100,3.57,283.48
1653636295,Mamontovo,52.7055,81.6244,34,0,3.46,301.33
1653636296,Terme,41.2092,36.9739,60,20,4.25,294.11
1653636296,Progreso,21.2833,-89.6667,85,50,3.27,297.65
1653636296,Dryden,49.7833,-92.7503,71,0,3.09,283.31
1653636297,Mānsa,29.9833,75.3833,15,0,1.73,315.32
1653636297,Kuandian,40.7286,124.7847,48,49,0.85,296.34
1653636297,Tuatapere,-46.1333,167.6833,87,1,1.82,279.68
1653636298,Esso,55.9333,158.7,100,100,1.3,276.83
1653636298,Michigan City,41.7075,-86.895,94,100,0.0,291.44
1653636299,Coyhaique,-45.5752,-72.0662,93,0,3.09,273.12
1653636299,Sakakah,29.9697,40.2064,15,0,5.67,305.91
1653636299,Klaksvík,62.2266,-6.589,79,13,6.58,282.66
1653636300,Kingsville,27.5159,-97.8561,95,0,3.09,297.29
1653636300,Carbonia,39.1672,8.5222,81,99,1.18,292.51
1653636301,Punganūru,13.3667,78.5833,33,31,5.77,306.22
1653636301,Puerto Escondido,15.85,-97.0667,87,100,3.28,299.7
1653636302,Yeppoon,-23.1333,150.7333,76,31,1.97,297.03
1653636302,Barra Patuca,15.8,-84.2833,87,60,3.92,298.68
1653636303,Pangody,65.85,74.4859,28,9,8.01,292.71
1653636303,Lithgow,-33.4833,150.15,81,88,0.48,284.42
1653636304,Juneau,58.3019,-134.4197,89,20,0.45,282.1
1653636304,Yarim,14.298,44.3779,20,0,1.02,294.38
1653636182,Sharjah city,25.3573,55.4033,28,0,5.14,310.31
1653636305,Altay,47.8667,88.1167,51,100,2.38,296.49
1653636305,Mount Gambier,-37.8333,140.7667,91,100,2.31,284.94
1653636306,Lata,40.1629,-8.3327,51,74,2.32,295.97
1653636306,Great Yarmouth,52.6083,1.7305,69,11,8.39,287.08
1653636306,Muisne,0.6,-80.0333,91,99,3.58,297.77
1653636307,Arlit,18.7369,7.3853,9,4,3.96,306.89
1653636307,Luna,10.9667,123.2333,71,87,3.86,302.52
1653636308,Cam Ranh,11.9214,109.1591,49,20,2.06,308.13
1653636308,Malakal,9.5334,31.6605,40,86,3.02,305.42
1653636308,Onalaska,43.8844,-91.2351,87,75,3.6,285.83
1653636309,Kangaatsiaq,68.3065,-53.4641,61,93,4.57,269.82
1653636309,General Roca,-39.0333,-67.5833,78,0,1.51,274.61
1653636309,Kamaishi,39.2667,141.8833,99,100,4.37,288.46
1653636135,Sørland,67.667,12.6934,89,100,1.66,282.07
1653636310,Oeiras,-7.0253,-42.1311,69,100,4.12,297.3
1653636310,Berbera,10.4396,45.0143,51,100,2.27,306.53
1653636311,Boromlya,50.6184,34.9704,61,7,8.89,288.88
1653636311,Beipiao,41.7919,120.7792,12,89,1.82,304.66
1653636311,Zaoyang,32.1272,112.7542,57,100,2.42,298.3
1653636312,Ibaiti,-23.8486,-50.1878,86,99,1.4,284.63
1653636188,Banda Aceh,5.5577,95.3222,65,100,6.27,303.19
1653636240,Maceió,-9.6658,-35.7353,94,75,5.14,295.84
1653636312,Ankazoabo,-22.2833,44.5167,54,3,4.99,296.93
1653636313,Agirish,61.9247,63.0231,94,100,5.92,278.77
1653636313,Buala,-8.145,159.5921,83,100,1.62,299.64
1653636313,Dingle,10.9995,122.6711,73,100,3.44,302.2
1653636314,Bacolod City,10.6667,122.95,76,98,4.12,300.97
1653636314,La Asuncion,11.0333,-63.8628,100,100,4.63,292.0
1653636315,Vaitape,-16.5167,-151.75,74,0,8.08,300.06
1653636315,Port Pirie,-33.1833,138.0167,62,0,2.0,289.35
1653636315,Honningsvåg,70.9821,25.9704,87,100,7.72,279.01
1653636316,Manono,-7.3,27.4167,40,44,1.88,299.73
1653636316,Kidal,18.4411,1.4078,19,25,3.5,306.88
1653636316,Nouakchott,18.0858,-15.9785,82,26,3.43,293.11
1653636317,Tatarsk,55.219,75.9828,40,10,6.49,297.94
1653636317,Rodnikovo,45.043,33.9541,58,12,2.85,293.2
1653636317,Nowy Dwór Mazowiecki,52.4302,20.7165,91,75,4.12,288.9
1653636318,Marabu,4.4148,114.0089,89,40,3.09,299.23
1653636318,Kuragino,53.8975,92.6725,31,17,2.78,294.89
1653636319,Marrakesh,31.6315,-8.0083,56,20,3.09,295.19
1653636319,Pochutla,15.7432,-96.4661,90,100,2.67,299.16
1653636319,Shurugwi,-19.6702,30.0059,50,0,3.41,288.72
1653636320,Belūr,13.1667,75.8667,43,11,4.27,301.29
1653636320,Kununurra,-15.7667,128.7333,18,15,3.09,306.14
1653636320,Lenoir,35.2335,-77.6497,97,75,2.57,295.51
1653636321,San Vicente,-26.6167,-54.1333,76,43,1.68,289.04
1653636321,Dubbo,-32.25,148.6167,82,75,1.54,289.22
1653636322,Ternate,0.8,127.4,75,100,1.8,301.38
1653636033,Kupang,-10.1667,123.5833,58,7,4.0,302.79
1653636322,Nakambala,-15.8324,27.7799,40,0,1.94,294.85
1653636314,Nhulunbuy,-12.2333,136.7667,61,40,7.72,302.49
1653636323,Måløy,61.9353,5.1136,83,36,2.02,282.44
1653636323,Kintampo,8.0563,-1.7306,94,100,2.22,294.47
1653636323,Moramanga,-18.9333,48.2,61,5,1.77,296.12
1653636324,Mahajanga,-15.7167,46.3167,55,0,1.03,304.16
1653636324,Heishan,41.6892,122.1128,26,2,3.76,301.5
1653636324,San Jerónimo,-11.9472,-75.2829,79,76,1.35,281.11
1653636325,Dudinka,69.4058,86.1778,97,100,1.41,277.0
1653636325,Günzburg,48.45,10.2667,79,8,4.58,290.21
1653636325,Mandalgovi,45.7625,106.2708,29,91,9.51,294.46
1653636254,Lafayette,30.2335,-92.0668,83,0,2.57,296.11
1653636326,Ouégoa,-20.35,164.4333,80,100,2.99,297.74
1653636327,Luanda,-8.8368,13.2343,83,75,1.54,295.15
1653636327,Chyhyryn,49.0838,32.6555,64,12,6.47,291.21
1653636327,Port Hardy,50.6996,-127.4199,100,75,4.12,283.25
1653636328,Batagay,67.6333,134.6333,37,46,2.25,280.9
1653636328,Biswān,27.5,81.0,17,0,2.58,313.11
1653636328,Kolosovka,56.4678,73.611,56,100,6.94,295.73
1653636329,Gumdag,39.2061,54.5906,30,0,1.15,295.68
1653636329,Laguna,38.421,-121.4238,82,0,5.14,289.9
1653636329,Sumbe,-11.2061,13.8437,82,8,1.22,295.42
1653636330,Alofi,-19.0595,-169.9187,94,58,1.54,296.09
1653636330,Praia da Vitória,38.7333,-27.0667,94,40,5.87,290.79
1653636331,Patea,-39.7583,174.4833,88,0,2.51,281.87
1653636331,Venado Tuerto,-33.7456,-61.9688,89,47,1.7,279.58
1653636332,Dhanwār,24.4167,85.9833,19,15,5.98,311.2
1653636064,Duluth,46.7833,-92.1066,92,0,2.57,281.68
1653636332,Bac Lieu,9.285,105.7244,76,100,6.64,301.74
1653636332,Paraíso,9.8383,-83.8656,96,78,0.37,291.16
1653636333,Santa Rosa,14.3122,121.1114,65,84,0.26,309.14
1653636333,Corinth,37.9407,22.9573,46,5,1.08,300.6
1653636320,Santa Ana,33.7456,-117.8678,79,100,1.54,290.77
1653636334,Shingū,33.7333,135.9833,48,97,2.12,298.58
1653636334,Andijan,40.7821,72.3442,30,0,2.06,302.03
1653636334,Roald,62.5833,6.1333,81,75,3.09,283.8
1653636335,Bikaner,28.0167,73.3,24,0,8.16,313.15
1653636335,Hammerfest,70.6634,23.6821,53,0,5.66,283.4
1653636336,Mattru,7.6244,-11.8332,98,28,1.12,296.04
1653636336,Zuénoula,7.4292,-6.0431,99,100,1.55,295.46
1653636337,Mitsamiouli,-11.3847,43.2844,67,5,5.45,300.4
1653636337,Alto Lucero,19.6167,-96.7167,92,87,1.47,294.01
1653636337,Bam,29.106,58.357,10,0,9.7,306.63
1653636338,Biak,-0.9131,122.8766,79,100,3.17,300.13
1653636338,Gobabis,-22.45,18.9667,21,0,5.31,291.04
1653636338,Tarata,-17.6167,-66.0167,81,0,1.94,281.86
1653636339,Ha Tinh,18.3333,105.9,60,96,2.43,306.58
1653636339,Tartagal,-22.5164,-63.8013,96,100,0.45,286.6
1653636339,Suicheng,33.8963,117.9331,17,100,3.76,306.49
